{
    "listings": [
        {
            "address": "54 Boulevard Lazare Carnot, 31000 Toulouse, France",
            "category": "Restaurant",
            "location": "Toulouse, France",
            "title": "Mama Restaurant Toulouse"
        },
        {
            "address": "1 Impasse Jean S\u00e9bastien Bach 31200 Toulouse, 31200 Toulouse, France",
            "category": "Restaurant",
            "location": "Toulouse, France",
            "title": "LE GALEO RESTAURANT TRAITEUR"
        },
        {
            "address": "7 Rue Joutx Aigues, 31000 Toulouse, France",
            "category": "International Restaurant",
            "location": "Toulouse, France",
            "title": "La Verriere Toulouse Restaurant et Epicerie"
        },
        {
            "address": "53 Rue de la R\u00e9publique, 31300 Toulouse, France",
            "category": "Restaurant",
            "location": "Toulouse, France",
            "title": "Fusion Bar & Restaurant"
        },
        {
            "address": "6 Rue de la Concorde, 31000 Toulouse, France",
            "category": "Restaurant",
            "location": "Toulouse, France",
            "title": "Adam Restaurant"
        },
        {
            "address": "4 R. Bayard, 31000 Toulouse, France",
            "category": "Japanese Restaurant",
            "location": "Toulouse, France",
            "title": "Restaurant Sushi Sakuraya"
        },
        {
            "address": "17 Place Dupuy, 31000 Toulouse, France",
            "category": "Finnish Restaurant",
            "location": "Toulouse, France",
            "title": "Restaurant le Si Bemol"
        },
        {
            "address": "99 Av de Lardenne, 31100 Toulouse, France",
            "category": "Finnish Restaurant",
            "location": "Toulouse, France",
            "title": "Restaurant Les Quatre Petits Cochons"
        },
        {
            "address": "62 R. de Metz, 31000 Toulouse, France",
            "category": "Food and Beverages",
            "location": "Toulouse, France",
            "title": "Restaurant La Grill\u00e9e"
        },
        {
            "address": "46 Av honore Serres, 31000 Toulouse, France",
            "category": "Food and Beverages",
            "location": "Toulouse, France",
            "title": "K-Lien-T Restaurant"
        },
        {
            "address": "9 R. Gabriel peri, 31000 Toulouse, France",
            "category": "Bar",
            "location": "Toulouse, France",
            "title": "Caf\u00e9 Restaurant La Maison"
        },
        {
            "address": "13 Place Saint Georges, 31000 Toulouse, France",
            "category": "Self Storage",
            "location": "Toulouse, France",
            "title": "Restaurant Emile"
        },
        {
            "address": "27 Av Honor\u00e9 Serres, 31000 Toulouse, France",
            "category": "Miscellaneous",
            "location": "Toulouse, France",
            "title": "Restaurant Le Saint Honor\u00e9"
        },
        {
            "address": "7 Rue Perchepinte, Toulouse, France",
            "category": "Miscellaneous",
            "location": "Toulouse, France",
            "title": "Traiteur / Restaurant"
        },
        {
            "address": "1 Imp. Andr\u00e9 Marestan, 31000 Toulouse, France",
            "category": "Miscellaneous",
            "location": "Toulouse, France",
            "title": "Restaurant Le Soleil Rouge"
        },
        {
            "address": "4 Place du Parlement, 31000 Toulouse, France",
            "category": "Miscellaneous",
            "location": "Toulouse, France",
            "title": "Restaurant Le Renfort du Palais"
        },
        {
            "address": "21 Av de Lyon, 31500 Toulouse, France",
            "category": "Miscellaneous",
            "location": "Toulouse, France",
            "title": "Restaurant Le Ryad"
        },
        {
            "address": "19 Rue des Lois, 31000 Toulouse, France",
            "category": "Miscellaneous",
            "location": "Toulouse, France",
            "title": "Restaurant Le Temps des Tartines"
        },
        {
            "address": "84 All\u00e9e Jean Jaur\u00e8s, 31000 Toulouse, France",
            "category": "Miscellaneous",
            "location": "Toulouse, France",
            "title": "Restaurant Sw Caf\u00e9"
        },
        {
            "address": "8 Rue Tripi\u00e8re, 31000 Toulouse, France",
            "category": "Miscellaneous",
            "location": "Toulouse, France",
            "title": "Restaurant Le Mare E Monti"
        }
    ]
}